[
  {
    "name": "El Chinampa Mexican Restaurant",
    "street": "17009 East Fwy",
    "city": "Channelview",
    "state": "TX",
    "zip": "77530",
    "url": "http://www.elchinampamexicanrestaurant.com/",
    "rating": 4.4,
    "pos": {"lat": 29.7895361,"lng": -95.0976512}
  },
  {
    "name": "Armenta's Mexican Restaurant",
    "street": "823 Sheldon Rd",
    "city": "Channelview",
    "state": "TX",
    "zip": "77530",
    "url": "http://www.armentasmexicanrestaurant.com/",
    "rating": 4.4,
    "pos": {"lat": 29.7854742,"lng": -95.1291523}
  },
  {
    "name": "Taqueria El Buen Taco",
    "street": "16510 Market St",
    "city": "Channelview",
    "state": "TX",
    "zip": "77530",
    "url": "Not Available",
    "rating": 4.5,
    "pos": {"lat": 29.7844827,"lng": -95.1066015}
  },
  {
    "name": "El Tejano Mexican Restaurant and Banquet Hall",
    "street": "315 Sheldon Rd",
    "city": "Channelview",
    "state": "TX",
    "zip": "77530",
    "url": "http://www.eltejanomexicanrestaurant.com/",
    "rating": 4.3,
    "pos": {"lat": 29.7818622,"lng": -95.1289228}
  },
  {
    "name": "Fajitas Taqueria",
    "street": "413 Sheldon Rd",
    "city": "Channelview",
    "state": "TX",
    "zip": "77530",
    "url": "https://www.facebook.com/Fajitas-Taqueria-Jalisco-324350260996104/",
    "rating": 4.1,
    "pos": {"lat": 29.7825496,"lng": -95.1288859}
  },
  {
    "name": "Taqueria La Mexicana",
    "street": "1132 Sheldon Rd",
    "city": "Channelview",
    "state": "TX",
    "zip": "77530",
    "url": "Not Available",
    "rating": 4.6,
    "pos": {"lat": 29.7924068,"lng": -95.1287081}
  },
  {
    "name": "Yoli's Tacos",
    "street": "6535 Sheldon Rd",
    "city": "Houston",
    "state": "TX",
    "zip": "77049",
    "url": "Not Available",
    "rating": 4.2,
    "pos": {"lat": 29.7982487,"lng": -95.130138}
  },
  {
    "name": "Las Palomas Mexican Restaurant",
    "street": "14614 Woodforest Blvd",
    "city": "Houston",
    "state": "TX",
    "zip": "77015",
    "url": "http://laspalomasmexicanrest.com/",
    "rating": 4.5,
    "pos": {"lat": 29.7812607,"lng": -95.1655401}
  },
  {
    "name": "Best Taco",
    "street": "403 Dell Dale St",
    "city": "Channelview",
    "state": "TX",
    "zip": "77530",
    "url": "Not Available",
    "rating": 4.0,
    "pos": {"lat": 29.7832943,"lng": -95.13591}
  },
  {
    "name": "Comala Mexican Cafe",
    "street": "5310 E Sam Houston Pkwy N k",
    "city": "Houston",
    "state": "TX",
    "zip": "77015",
    "url": "http://www.comalamexicancafe.com/",
    "rating": 4.3,
    "pos": {"lat": 29.7863875,"lng": -95.1654304}
  },
  {
    "name": "Tortilleria La Delicia",
    "street": "802 Sheldon Rd",
    "city": "Channelview",
    "state": "TX",
    "zip": "77530",
    "url": "Not Available",
    "rating": 4.5,
    "pos": {"lat": 29.7854742,"lng": -95.1287013}
  },
  {
    "name": "La Casita Refresqueria",
    "street": "975 Sheldon Rd",
    "city": "Channelview",
    "state": "TX",
    "zip": "77530",
    "url": "Not Available",
    "rating": 4.0,
    "pos": {"lat": 29.7865465,"lng": -95.1288115}
  },
  {
    "name": "Iguana Joe's",
    "street": "3256, 5710 East Sam Houston Pkwy N",
    "city": "Houston",
    "state": "TX",
    "zip": "77015",
    "url": "http://www.iguanajoes.menu/",
    "rating": 4.3,
    "pos": {"lat": 29.7894282,"lng": -95.1655807}
  },
  {
    "name": "Los 2 Vaqueros Tacos",
    "street": "Los 2 Vaqueros Tacos",
    "city": "Channelview",
    "state": "TX",
    "zip": "77530",
    "url": "Not Available",
    "rating": 4.8,
    "pos": {"lat": 29.7924068,"lng": -95.1287015}
  },
  {
    "name": "tacos el toro",
    "street": "14939 Woodforest Blvd",
    "city": "Channelview",
    "state": "TX",
    "zip": "77530",
    "url": "Not Available",
    "rating": 4.0,
    "pos": {"lat": 29.7820888,"lng": -95.1608205}
  },
  {
    "name": "Karanchos",
    "street": "620 Sheldon Rd",
    "city": "Channelview",
    "state": "TX",
    "zip": "77530",
    "url": "Not Available",
    "rating": 3.9,
    "pos": {"lat": 29.78934,"lng": -95.1225792}
  }
]
